<?xml version="1.0" encoding="UTF-8"?>
<data><row><sno>1001</sno><sna>大鵬華城</sna><tot>12</tot><sbi>5</sbi><sarea>新店區</sarea><mday>20230627213921</mday><lat>24.99116</lat><lng>121.53398</lng><ar>新北市新店區中正路700巷3號</ar><sareaen>Xindian Dist.</sareaen><snaen>Dapeng Community</snaen><aren>No. 3, Lane 700 Chung Cheng Road, Xindian District</aren><bemp>7</bemp><act>1</act></row><row><sno>1002</sno><sna>汐止火車站</sna><tot>24</tot><sbi>14</sbi><sarea>汐止區</sarea><mday>20230627213926</mday><lat>25.068914</lat><lng>121.662748</lng><ar>南昌街/新昌路口(西側廣場)</ar><sareaen>Xizhi Dist.</sareaen><snaen>Xizhi Railway Station</snaen><aren>Nanchang St./Xinchang Rd.</aren><bemp>10</bemp><act>1</act></row><row><sno>1003</sno><sna>汐止區公所</sna><tot>24</tot><sbi>4</sbi><sarea>汐止區</sarea><mday>20230627213920</mday><lat>25.064162</lat><lng>121.658301</lng><ar>新台五路一段/仁愛路口(新台五路側汐止地政事務所前機車停車場)</ar><sareaen>Xizhi Dist.</sareaen><snaen>Xizhi Dist. Office</snaen><aren>Sec. 1, Xintai 5th Rd./Ren’ai Rd.</aren><bemp>19</bemp><act>1</act></row><row><sno>1004</sno><sna>國泰綜合醫院</sna><tot>28</tot><sbi>14</sbi><sarea>汐止區</sarea><mday>20230627213921</mday><lat>25.07315</lat><lng>121.662555</lng><ar>建成路78號對面停車場</ar><sareaen>Xizhi Dist.</sareaen><snaen>Cathay General Hospital</snaen><aren>No78, Jiancheng Rd</aren><bemp>9</bemp><act>1</act></row><row><sno>1006</sno><sna>捷運大坪林站(5號出口)</sna><tot>26</tot><sbi>16</sbi><sarea>新店區</sarea><mday>20230627213941</mday><lat>24.982830</lat><lng>121.543620</lng><ar>中興路三段224號(對面)</ar><sareaen>Xindian Dist.</sareaen><snaen>MRT DaPingLin Station(Exit.5)</snaen><aren>No. 224, Sec. 3, Zhongxing Rd., Xindian Dist.(opposite)</aren><bemp>5</bemp><act>1</act></row><row><sno>1007</sno><sna>汐科火車站(北)</sna><tot>16</tot><sbi>7</sbi><sarea>汐止區</sarea><mday>20230627213929</mday><lat>25.064106</lat><lng>121.653019</lng><ar>大同路二段184巷/龍安路202巷(西側)(汐科火車站北站出口前)</ar><sareaen>Xizhi Dist.</sareaen><snaen>Xike Railway Station(North)</snaen><aren>Ln. 184,Sec. 2, Datong Rd./Ln. 202,Long’an Rd.</aren><bemp>9</bemp><act>1</act></row><row><sno>1008</sno><sna>興華公園</sna><tot>24</tot><sbi>6</sbi><sarea>三重區</sarea><mday>20230627213916</mday><lat>25.060125</lat><lng>121.483101</lng><ar>重陽路一段120巷/中華路2巷</ar><sareaen>Sanchong Dist.</sareaen><snaen>Xinghua Park</snaen><aren>Ln. 120, Sec. 1, Chongyang Rd./Ln. 2, Zhonghua Rd.</aren><bemp>18</bemp><act>1</act></row><row><sno>1009</sno><sna>三重國民運動中心</sna><tot>38</tot><sbi>31</sbi><sarea>三重區</sarea><mday>20230627213936</mday><lat>25.054391</lat><lng>121.488489</lng><ar>集美街/重新路四段184巷</ar><sareaen>Sanchong Dist.</sareaen><snaen>San chong Civil Sports Center</snaen><aren>Jimei St., Sanchong Dist./Ln. 184, Sec. 4, Chongxin Rd.</aren><bemp>7</bemp><act>1</act></row><row><sno>1010</sno><sna>捷運三重站(3號出口)</sna><tot>20</tot><sbi>0</sbi><sarea>三重區</sarea><mday>20230627213939</mday><lat>25.055883</lat><lng>121.484739</lng><ar>捷運路/捷運路37巷</ar><sareaen>Sanchong Dist.</sareaen><snaen>MRT Sanchong Sta. (Exit 3)</snaen><aren>Jieyun Rd./Ln. 37, Jieyun Rd.</aren><bemp>14</bemp><act>1</act></row><row><sno>1011</sno><sna>樟樹國小</sna><tot>40</tot><sbi>18</sbi><sarea>汐止區</sarea><mday>20230627213943</mday><lat>25.066688</lat><lng>121.640367</lng><ar>樟樹二路/樟樹一路141巷</ar><sareaen>Xizhi Dist.</sareaen><snaen>Zhangshu Elementary School</snaen><aren>Zhangshu 2nd Rd./Ln. 141, Zhangshu 1st Rd.</aren><bemp>21</bemp><act>1</act></row><row><sno>1012</sno><sna>金龍國小</sna><tot>42</tot><sbi>11</sbi><sarea>汐止區</sarea><mday>20230627213933</mday><lat>25.0688</lat><lng>121.628908</lng><ar>中興路/民族六街</ar><sareaen>Xizhi Dist.</sareaen><snaen>Jinlong Elementary School</snaen><aren>Zhongxing Rd./Minzu 6th St.</aren><bemp>29</bemp><act>1</act></row><row><sno>1013</sno><sna>白雲國小</sna><tot>16</tot><sbi>9</sbi><sarea>汐止區</sarea><mday>20230627213923</mday><lat>25.047578</lat><lng>121.618888</lng><ar>民權街二段90號</ar><sareaen>Xizhi Dist.</sareaen><snaen>Pai Yun Primary School</snaen><aren>No.90, Sec. 2, Minquan St.</aren><bemp>6</bemp><act>1</act></row><row><sno>1014</sno><sna>東勢宜興活動中心</sna><tot>30</tot><sbi>11</sbi><sarea>汐止區</sarea><mday>20230627213926</mday><lat>25.039031</lat><lng>121.624333</lng><ar>東勢街/芳園街</ar><sareaen>Xizhi Dist.</sareaen><snaen>Yixing-Dongshi Civic Center</snaen><aren>Dongshi St./Fangyuan St.</aren><bemp>18</bemp><act>1</act></row><row><sno>1015</sno><sna>後港公園</sna><tot>10</tot><sbi>3</sbi><sarea>新莊區</sarea><mday>20230627213916</mday><lat>25.025358</lat><lng>121.428348</lng><ar>建安街/建安街57巷</ar><sareaen>Xinzhuang Dist.</sareaen><snaen>Hougang Park</snaen><aren>Ln. 57, Jian’an St./Jian’an St.</aren><bemp>7</bemp><act>1</act></row><row><sno>1016</sno><sna>福營行政中心</sna><tot>20</tot><sbi>0</sbi><sarea>新莊區</sarea><mday>20230627213922</mday><lat>25.0241250</lat><lng>121.423870</lng><ar>四維路17號-20號</ar><sareaen>Xinzhuang Dist.</sareaen><snaen>Fuying Administration Center</snaen><aren>No.17, Siwei Rd./No.20, Siwei Rd.</aren><bemp>12</bemp><act>1</act></row><row><sno>1017</sno><sna>西盛公園</sna><tot>10</tot><sbi>8</sbi><sarea>新莊區</sarea><mday>20230627213944</mday><lat>25.017113</lat><lng>121.428048</lng><ar>新莊區西盛街/西盛街201巷</ar><sareaen>Xinzhuang Dist.</sareaen><snaen>Xisheng Park</snaen><aren>Xisheng St./Ln. 201, Xisheng St.</aren><bemp>2</bemp><act>1</act></row><row><sno>1018</sno><sna>忠誠里(北新路2段97巷)</sna><tot>12</tot><sbi>1</sbi><sarea>新店區</sarea><mday>20230627213939</mday><lat>24.974272</lat><lng>121.542779</lng><ar>北新路二段/北新路二段97巷</ar><sareaen>Xindian Dist.</sareaen><snaen>Zhongcheng Village (Ln. 97, Sec. 2, Beixin Rd)</snaen><aren>Sec. 2, Beixin Rd./Ln. 97, Sec. 2, Beixin Rd.</aren><bemp>10</bemp><act>1</act></row><row><sno>1019</sno><sna>仁愛廣場</sna><tot>28</tot><sbi>2</sbi><sarea>蘆洲區</sarea><mday>20230627213934</mday><lat>25.090565</lat><lng>121.471621</lng><ar>民權路139號旁</ar><sareaen>Luzhou Dist.</sareaen><snaen>Renai Square</snaen><aren>No.139, Minquan Rd.</aren><bemp>16</bemp><act>1</act></row><row><sno>1020</sno><sna>重陽國小</sna><tot>14</tot><sbi>11</sbi><sarea>三重區</sarea><mday>20230627213940</mday><lat>25.066245</lat><lng>121.484337</lng><ar>中正北路/三民街175巷</ar><sareaen>Sanchong Dist.</sareaen><snaen>Chong Yang Elementary School</snaen><aren>Zhongzheng N. Rd./Ln. 175, Sanmin St.</aren><bemp>2</bemp><act>1</act></row><row><sno>1021</sno><sna>明志國中</sna><tot>50</tot><sbi>10</sbi><sarea>三重區</sarea><mday>20230627213918</mday><lat>25.063396</lat><lng>121.488982</lng><ar>中正北路107號</ar><sareaen>Sanchong Dist.</sareaen><snaen>Mingzhi Junior High School</snaen><aren>No.107, Zhongzheng N. Rd</aren><bemp>39</bemp><act>1</act></row><row><sno>1022</sno><sna>三重商工</sna><tot>64</tot><sbi>3</sbi><sarea>三重區</sarea><mday>20230627213931</mday><lat>25.068681</lat><lng>121.480705</lng><ar>中正北路/中正北路276巷</ar><sareaen>Sanchong Dist.</sareaen><snaen>San-Chung Commercial and Industrial Vocational High School</snaen><aren>Ln. 276, Zhongzheng N. Rd.</aren><bemp>61</bemp><act>1</act></row><row><sno>1023</sno><sna>捷運新莊站(1號出口)</sna><tot>22</tot><sbi>2</sbi><sarea>新莊區</sarea><mday>20230627213826</mday><lat>25.036152</lat><lng>121.452069</lng><ar>中正路/中華路一段(鄰近新莊廟街)</ar><sareaen>Xinzhuang Dist.</sareaen><snaen>MRT Xinzhuang Sta. (Exit 1)</snaen><aren>Zhongzheng Rd./Sec. 1, Zhonghua Rd.</aren><bemp>16</bemp><act>1</act></row><row><sno>1024</sno><sna>原興廣場</sna><tot>32</tot><sbi>14</sbi><sarea>汐止區</sarea><mday>20230627213945</mday><lat>25.065042</lat><lng>121.633149</lng><ar>原興路/中興路150巷</ar><sareaen>Xizhi Dist.</sareaen><snaen>Yuan Xing Square</snaen><aren>Yuanxing Rd./Ln. 150, Zhongxing Rd.</aren><bemp>14</bemp><act>1</act></row><row><sno>1025</sno><sna>文化白雲公園</sna><tot>68</tot><sbi>34</sbi><sarea>汐止區</sarea><mday>20230627213929</mday><lat>25.056875</lat><lng>121.655207</lng><ar>水源路二段42號訖水源路二段68號</ar><sareaen>Xizhi Dist.</sareaen><snaen>Wenhua-Baiyun Park</snaen><aren>No.42 to No.68, Sec. 2, Shuiyuan Rd.</aren><bemp>34</bemp><act>1</act></row><row><sno>1026</sno><sna>秀山國小</sna><tot>10</tot><sbi>3</sbi><sarea>中和區</sarea><mday>20230627213934</mday><lat>24.996151</lat><lng>121.521988</lng><ar>更生街/自立路(西南側)</ar><sareaen>Zhonghe Dist.</sareaen><snaen>Xiushan Elementary School</snaen><aren>Gengsheng St./Zili Rd.</aren><bemp>7</bemp><act>1</act></row><row><sno>1027</sno><sna>捷運永安市場站</sna><tot>18</tot><sbi>0</sbi><sarea>中和區</sarea><mday>20230627213929</mday><lat>25.001013</lat><lng>121.511588</lng><ar>中安街/中和路378巷(東南側)</ar><sareaen>Zhonghe Dist.</sareaen><snaen>MRT Yongan Market Sta.</snaen><aren>Zhong’an St./Ln. 378, Zhonghe Rd.</aren><bemp>18</bemp><act>1</act></row><row><sno>1029</sno><sna>仁愛公園</sna><tot>34</tot><sbi>21</sbi><sarea>永和區</sarea><mday>20230627213934</mday><lat>25.009838</lat><lng>121.505825</lng><ar>仁愛路/保生路(鄰近世界宗教博物館)</ar><sareaen>Yonghe Dist.</sareaen><snaen>Renai Park</snaen><aren>Ren’ai Rd./Baosheng Rd.</aren><bemp>13</bemp><act>1</act></row><row><sno>1030</sno><sna>中和公園</sna><tot>14</tot><sbi>0</sbi><sarea>中和區</sarea><mday>20230627213943</mday><lat>25.000726</lat><lng>121.514350</lng><ar>安樂路/得和路(西南側)</ar><sareaen>Zhonghe Dist.</sareaen><snaen>Zhonghe Park</snaen><aren>Anle Rd./Dehe Rd.</aren><bemp>13</bemp><act>1</act></row><row><sno>1031</sno><sna>金龍公園</sna><tot>26</tot><sbi>9</sbi><sarea>汐止區</sarea><mday>20230627213937</mday><lat>25.069473</lat><lng>121.631525</lng><ar>湖前街31巷2弄/湖前街31巷</ar><sareaen>Xizhi Dist.</sareaen><snaen>Jinlong Park</snaen><aren>Aly. 2, Ln. 31, Huqian St./Ln. 31, Huqian St.</aren><bemp>16</bemp><act>1</act></row><row><sno>1032</sno><sna>重陽公園</sna><tot>44</tot><sbi>26</sbi><sarea>蘆洲區</sarea><mday>20230627213919</mday><lat>25.085688</lat><lng>121.483618</lng><ar>集賢路221巷重陽活動中心(鄰近蘆洲兒童親子分館)</ar><sareaen>Luzhou Dist.</sareaen><snaen>Chong Yang Park</snaen><aren>Ln. 221, Jixian Rd.</aren><bemp>18</bemp><act>1</act></row><row><sno>1034</sno><sna>中原公園</sna><tot>30</tot><sbi>5</sbi><sarea>蘆洲區</sarea><mday>20230627213940</mday><lat>25.083316</lat><lng>121.463894</lng><ar>長興路22號前通道</ar><sareaen>Luzhou Dist.</sareaen><snaen>Zhung Yuan Park</snaen><aren>No.22, Changxing Rd.</aren><bemp>24</bemp><act>1</act></row><row><sno>1035</sno><sna>丹鳳派出所</sna><tot>18</tot><sbi>5</sbi><sarea>新莊區</sarea><mday>20230627213921</mday><lat>25.027694</lat><lng>121.414662</lng><ar>雙鳳路77巷丹鳳派出所前</ar><sareaen>Xinzhuang Dist.</sareaen><snaen>Danfeng Police Substation</snaen><aren>Ln. 77, Shuangfeng Rd.(Danfeng Police Station)</aren><bemp>6</bemp><act>1</act></row><row><sno>1036</sno><sna>小金門友誼公園</sna><tot>20</tot><sbi>8</sbi><sarea>新店區</sarea><mday>20230627213945</mday><lat>24.977227</lat><lng>121.538140</lng><ar>民族路/建興街</ar><sareaen>Xindian Dist.</sareaen><snaen>Little Kinmen Park</snaen><aren>Minzu Rd./Jianxing St.</aren><bemp>5</bemp><act>1</act></row><row><sno>1037</sno><sna>中興寶橋路口</sna><tot>18</tot><sbi>3</sbi><sarea>新店區</sarea><mday>20230627213919</mday><lat>24.976180</lat><lng>121.546870</lng><ar>中興路三段1號旁</ar><sareaen>Xindian Dist.</sareaen><snaen>Zhongxing &amp; Baoqiao Intersection　</snaen><aren>No.1, Sec. 3, Zhongxing Rd.</aren><bemp>14</bemp><act>1</act></row><row><sno>1038</sno><sna>新莊棒球場</sna><tot>74</tot><sbi>22</sbi><sarea>新莊區</sarea><mday>20230627213920</mday><lat>25.041603</lat><lng>121.446053</lng><ar>和興街75號/復興路一段23號(鄰近新莊綜合運動場)</ar><sareaen>Xinzhuang Dist.</sareaen><snaen>Xinzhuang Baseball Court</snaen><aren>No.75, Hexing St./No.23, Sec. 1, Fuxing Rd.</aren><bemp>48</bemp><act>1</act></row><row><sno>1039</sno><sna>頂溪國小</sna><tot>10</tot><sbi>0</sbi><sarea>永和區</sarea><mday>20230627213926</mday><lat>25.015811</lat><lng>121.511261</lng><ar>文化路133號(西側)(鄰近永和親子圖書閱覽室)</ar><sareaen>Yonghe Dist.</sareaen><snaen>Tinghsi Elementary School</snaen><aren>No.133, Wenhua Rd.</aren><bemp>10</bemp><act>1</act></row><row><sno>1040</sno><sna>永和國小</sna><tot>14</tot><sbi>7</sbi><sarea>永和區</sarea><mday>20230627213938</mday><lat>25.002272</lat><lng>121.517442</lng><ar>中正路390號至426號對面</ar><sareaen>Yonghe Dist.</sareaen><snaen>Yonghe Elementary School</snaen><aren>No.390 to No.426, Zhongzheng Rd.(opposite)</aren><bemp>7</bemp><act>1</act></row><row><sno>1041</sno><sna>秀朗國小</sna><tot>12</tot><sbi>8</sbi><sarea>永和區</sarea><mday>20230627213930</mday><lat>24.999392</lat><lng>121.522843</lng><ar>民生路15號至23號對面</ar><sareaen>Yonghe Dist.</sareaen><snaen>Xiu Lang Elementary School</snaen><aren>No.15 to No.23, Minsheng Rd.(opposite)</aren><bemp>4</bemp><act>1</act></row><row><sno>1042</sno><sna>台北慈濟醫院</sna><tot>16</tot><sbi>8</sbi><sarea>新店區</sarea><mday>20230627213924</mday><lat>24.985872</lat><lng>121.536887</lng><ar>建國路289號旁空地</ar><sareaen>Xindian Dist.</sareaen><snaen>Taipei Tzu Chi Hospital</snaen><aren>No.289, Jianguo Rd.</aren><bemp>7</bemp><act>1</act></row><row><sno>1043</sno><sna>捷運頂溪站(1號出口)</sna><tot>26</tot><sbi>0</sbi><sarea>永和區</sarea><mday>20230627213943</mday><lat>25.012176</lat><lng>121.515271</lng><ar>中興街1號對面</ar><sareaen>Yonghe Dist.</sareaen><snaen>MRT Dingxi Sta. (Exit 1)</snaen><aren>No.1, Zhongxing St.(opposite)</aren><bemp>18</bemp><act>1</act></row><row><sno>1044</sno><sna>保安永平路口</sna><tot>24</tot><sbi>2</sbi><sarea>永和區</sarea><mday>20230627213917</mday><lat>25.012691</lat><lng>121.506471</lng><ar>保安路248號至250號對面</ar><sareaen>Yonghe Dist.</sareaen><snaen>Bao'an &amp; Yongping Intersection</snaen><aren>No.248 to No.250, Bao’an Rd.</aren><bemp>22</bemp><act>1</act></row><row><sno>1045</sno><sna>崇光女中</sna><tot>20</tot><sbi>0</sbi><sarea>新店區</sarea><mday>20230627213930</mday><lat>24.972127</lat><lng>121.539554</lng><ar>三民路14號至三民路18號</ar><sareaen>Xindian Dist.</sareaen><snaen>Our Lady of Providence Girls' High School</snaen><aren>No.14 to No.18, Sanmin Rd.</aren><bemp>17</bemp><act>1</act></row><row><sno>1046</sno><sna>新店高中</sna><tot>16</tot><sbi>1</sbi><sarea>新店區</sarea><mday>20230627213939</mday><lat>24.974181</lat><lng>121.534209</lng><ar>三民路159巷/三民路108號(對面人行道)</ar><sareaen>Xindian Dist.</sareaen><snaen>Hsin Tien Senior High School</snaen><aren>Ln. 159, Sanmin Rd./ No.108, Sanmin Rd.</aren><bemp>6</bemp><act>1</act></row><row><sno>1047</sno><sna>新莊文化藝術中心</sna><tot>26</tot><sbi>16</sbi><sarea>新莊區</sarea><mday>20230627213938</mday><lat>25.047150</lat><lng>121.444453</lng><ar>中平路133號前(鄰近新莊文化藝術中心)</ar><sareaen>Xinzhuang Dist.</sareaen><snaen>Xinzhuang Culture and Arts Center</snaen><aren>No.133, Zhongping Rd.</aren><bemp>10</bemp><act>1</act></row><row><sno>1048</sno><sna>中華中原路口</sna><tot>58</tot><sbi>17</sbi><sarea>新莊區</sarea><mday>20230627213938</mday><lat>25.054232</lat><lng>121.451752</lng><ar>中原路/中華路二段</ar><sareaen>Xinzhuang Dist.</sareaen><snaen>Zhonghua &amp; Zhongyuan Intersection</snaen><aren>Zhongyuan Rd./Sec. 2, Zhonghua Rd</aren><bemp>38</bemp><act>1</act></row><row><sno>1049</sno><sna>新北高中</sna><tot>36</tot><sbi>1</sbi><sarea>三重區</sarea><mday>20230627213933</mday><lat>25.087225</lat><lng>121.489525</lng><ar>三信路1號旁</ar><sareaen>Sanchong Dist.</sareaen><snaen>New Taipei Senior High School</snaen><aren>No.1, Sanxin Rd.</aren><bemp>15</bemp><act>1</act></row><row><sno>1050</sno><sna>福壽公園</sna><tot>20</tot><sbi>7</sbi><sarea>新莊區</sarea><mday>20230627213918</mday><lat>25.051829</lat><lng>121.457746</lng><ar>福壽街130號至140號(對面福壽公園)</ar><sareaen>Xinzhuang Dist.</sareaen><snaen>Fushou Park</snaen><aren>No.130 to No.140, Fushou St.</aren><bemp>13</bemp><act>1</act></row><row><sno>1051</sno><sna>保長公園</sna><tot>60</tot><sbi>41</sbi><sarea>汐止區</sarea><mday>20230627213924</mday><lat>25.079523</lat><lng>121.674342</lng><ar>保長路/保長路45巷</ar><sareaen>Xizhi Dist.</sareaen><snaen>Baochang Park</snaen><aren>Baochang Rd./Ln. 45, Baochang Rd.</aren><bemp>16</bemp><act>1</act></row><row><sno>1052</sno><sna>新店公有中央市場</sna><tot>28</tot><sbi>3</sbi><sarea>新店區</sarea><mday>20230627213929</mday><lat>24.975308</lat><lng>121.527287</lng><ar>中央四街64號對面</ar><sareaen>Xindian Dist.</sareaen><snaen>Zhongyang Market</snaen><aren>No.64, Zhongyang 4th St. (opposite)</aren><bemp>19</bemp><act>1</act></row><row><sno>1053</sno><sna>永平高中</sna><tot>16</tot><sbi>0</sbi><sarea>永和區</sarea><mday>20230627213933</mday><lat>25.009790</lat><lng>121.509092</lng><ar>永平路/永平路203巷口(靠學校圍牆路側)(鄰近樂華夜市/世界宗教博物館)</ar><sareaen>Yonghe Dist.</sareaen><snaen>Yong-Ping High School</snaen><aren>Yongping Rd./Ln. 203, Yongping Rd.</aren><bemp>16</bemp><act>1</act></row><row><sno>1054</sno><sna>惠國市場</sna><tot>16</tot><sbi>5</sbi><sarea>新店區</sarea><mday>20230627213941</mday><lat>24.970415</lat><lng>121.543384</lng><ar>中正路75巷至中正路95巷間(鄰近馬公友誼公園)</ar><sareaen>Xindian Dist.</sareaen><snaen>Huiguo Market</snaen><aren>Ln. 75 to Ln. 95 , Zhongzheng Rd.</aren><bemp>4</bemp><act>1</act></row><row><sno>1055</sno><sna>陽光橋</sna><tot>22</tot><sbi>4</sbi><sarea>新店區</sarea><mday>20230627213927</mday><lat>24.978494</lat><lng>121.524176</lng><ar>溪園路/中山路</ar><sareaen>Xindian Dist.</sareaen><snaen>Sunshine Bridge</snaen><aren>Xiyuan Rd./Zhongshan Rd.</aren><bemp>7</bemp><act>1</act></row><row><sno>1056</sno><sna>中興寶慶街口</sna><tot>18</tot><sbi>7</sbi><sarea>新店區</sarea><mday>20230627213938</mday><lat>24.986942</lat><lng>121.541950</lng><ar>中興路三段/寶慶街</ar><sareaen>Xindian Dist.</sareaen><snaen>Zhongxing &amp; Baoqing Intersection</snaen><aren>Sec. 3, Zhongxing Rd./Baoqing St.</aren><bemp>3</bemp><act>1</act></row><row><sno>1057</sno><sna>東方科學園區</sna><tot>30</tot><sbi>4</sbi><sarea>汐止區</sarea><mday>20230627213931</mday><lat>25.061262</lat><lng>121.649512</lng><ar>新台五路一段90-116號</ar><sareaen>Xizhi Dist.</sareaen><snaen>Oriental Science Park</snaen><aren>No.90 to No.116, Sec. 1, Xintai 5th Rd.</aren><bemp>26</bemp><act>1</act></row><row><sno>1058</sno><sna>連興龍安路口</sna><tot>26</tot><sbi>7</sbi><sarea>汐止區</sarea><mday>20230627213940</mday><lat>25.062989</lat><lng>121.654430</lng><ar>連興路/龍安路28巷</ar><sareaen>Xizhi Dist.</sareaen><snaen>Lianxing &amp; Long’an Intersection</snaen><aren>Lianxing St./Ln. 28, Long’an Rd.</aren><bemp>13</bemp><act>1</act></row><row><sno>1059</sno><sna>青山國民中小學</sna><tot>50</tot><sbi>30</sbi><sarea>汐止區</sarea><mday>20230627213944</mday><lat>25.061034</lat><lng>121.655586</lng><ar>莊敬街33號</ar><sareaen>Xizhi Dist.</sareaen><snaen>Qingshan Elementary and Junior High School</snaen><aren>No.33, Zhuangjing St.</aren><bemp>19</bemp><act>1</act></row><row><sno>1060</sno><sna>汐止區綜合運動場</sna><tot>44</tot><sbi>15</sbi><sarea>汐止區</sarea><mday>20230627213940</mday><lat>25.066238</lat><lng>121.659067</lng><ar>汐科路/秀峰路</ar><sareaen>Xizhi Dist.</sareaen><snaen>Xizhi Sports Field</snaen><aren>Xike Rd./Xiufeng Rd.</aren><bemp>28</bemp><act>1</act></row><row><sno>1061</sno><sna>汐止公園</sna><tot>52</tot><sbi>15</sbi><sarea>汐止區</sarea><mday>20230627213937</mday><lat>25.067682</lat><lng>121.659763</lng><ar>大同路二段451號</ar><sareaen>Xizhi Dist.</sareaen><snaen>Xizhi Park</snaen><aren>No.451, Sec. 2, Datong Rd.</aren><bemp>36</bemp><act>1</act></row><row><sno>1062</sno><sna>保順環河西路口</sna><tot>10</tot><sbi>8</sbi><sarea>永和區</sarea><mday>20230627213945</mday><lat>25.010786</lat><lng>121.503376</lng><ar>保順環河西路口</ar><sareaen>Yonghe Dist.</sareaen><snaen>Baoshun &amp; Huanhe W. Intersection</snaen><aren>Baoshun &amp; Huanhe W. Intersection</aren><bemp>2</bemp><act>1</act></row><row><sno>1063</sno><sna>台灣科學園區</sna><tot>40</tot><sbi>1</sbi><sarea>汐止區</sarea><mday>20230627213936</mday><lat>25.057900</lat><lng>121.634899</lng><ar>大同路一段237號前空地</ar><sareaen>Xizhi Dist.</sareaen><snaen>Taiwan Science Park</snaen><aren>No.237, Sec. 1, Datong Rd.</aren><bemp>39</bemp><act>1</act></row><row><sno>1064</sno><sna>中正國小</sna><tot>18</tot><sbi>2</sbi><sarea>新店區</sarea><mday>20230627213943</mday><lat>24.971496</lat><lng>121.536296</lng><ar>三民路36號-42-1號前機車格</ar><sareaen>Xindian Dist.</sareaen><snaen>Chung Cheng Elementary School</snaen><aren>No. 36 to No.42-1, Sanmin Rd.</aren><bemp>10</bemp><act>1</act></row><row><sno>1065</sno><sna>開元市民活動中心</sna><tot>10</tot><sbi>1</sbi><sarea>三重區</sarea><mday>20230627213932</mday><lat>25.066074</lat><lng>121.503557</lng><ar>開元街58號/長元街65巷16弄對面</ar><sareaen>Sanchong Dist.</sareaen><snaen>Kaiyuan Civic Activity Center</snaen><aren>No.58, Kaiyuan St./Aly. 16, Ln. 65, Changyuan St. (opposite)</aren><bemp>9</bemp><act>1</act></row><row><sno>1066</sno><sna>雍和科學園區</sna><tot>26</tot><sbi>3</sbi><sarea>汐止區</sarea><mday>20230627213916</mday><lat>25.058078</lat><lng>121.626018</lng><ar>南陽街185號</ar><sareaen>Xizhi Dist.</sareaen><snaen>Taipei Park</snaen><aren>No.185, Nanyang St.</aren><bemp>22</bemp><act>1</act></row><row><sno>1067</sno><sna>二重國小</sna><tot>10</tot><sbi>10</sbi><sarea>三重區</sarea><mday>20230627213938</mday><lat>25.065976</lat><lng>121.477656</lng><ar>頂崁街164號至188號(對面二重國小)</ar><sareaen>Sanchong Dist.</sareaen><snaen>Er Chong Elementary School</snaen><aren>No.164 to No.188, Dingkan St. (opposite)</aren><bemp>0</bemp><act>1</act></row><row><sno>1068</sno><sna>二重國中</sna><tot>70</tot><sbi>6</sbi><sarea>三重區</sarea><mday>20230627213933</mday><lat>25.065957</lat><lng>121.480465</lng><ar>忠孝路三段75巷1號至忠孝路三段75巷11號(對面人行道)</ar><sareaen>Sanchong Dist.</sareaen><snaen>Er Chung Junior High School</snaen><aren>No.1, Ln. 75, Sec. 3, Zhongxiao Rd. to No.11, Ln. 75, Sec. 3, Zhongxiao Rd. (opposite)</aren><bemp>63</bemp><act>1</act></row><row><sno>1069</sno><sna>三重行政中心</sna><tot>44</tot><sbi>12</sbi><sarea>三重區</sarea><mday>20230627213938</mday><lat>25.060566</lat><lng>121.488229</lng><ar>新北大道一段15巷至新北大道一段5巷2弄(區公所人行道)</ar><sareaen>Sanchong Dist.</sareaen><snaen>Sanchong District office</snaen><aren>Ln. 12, Zhongshan Rd.,/Aly. 2, Ln. 5, Sec. 1, New Taipei Blvd.</aren><bemp>32</bemp><act>1</act></row><row><sno>1070</sno><sna>新北市立圖書館三重分館</sna><tot>50</tot><sbi>14</sbi><sarea>三重區</sarea><mday>20230627213943</mday><lat>25.066099</lat><lng>121.495529</lng><ar>自強路一段162號至自強路一段二弄4號(對面停車場)</ar><sareaen>Sanchong Dist.</sareaen><snaen>New Taipei City Library Sanchong Branch</snaen><aren>No.162, Sec. 1, Ziqiang Rd. to No.4, Aly. 2, Sec. 1, Ziqiang Rd. (opposite)</aren><bemp>34</bemp><act>1</act></row><row><sno>1071</sno><sna>三張公園</sna><tot>40</tot><sbi>6</sbi><sarea>三重區</sarea><mday>20230627213943</mday><lat>25.070507</lat><lng>121.490935</lng><ar>大智街127號至大智路137號(對面三張公園)</ar><sareaen>Sanchong Dist.</sareaen><snaen>Sanzhang Park</snaen><aren>No.127, Dazhi St. to No.137, Dazhi St. (opposite)</aren><bemp>34</bemp><act>1</act></row><row><sno>1072</sno><sna>捷運丹鳳站(1號出口)</sna><tot>24</tot><sbi>1</sbi><sarea>新莊區</sarea><mday>20230627213931</mday><lat>25.029032</lat><lng>121.422799</lng><ar>中正路/民安路</ar><sareaen>Xinzhuang Dist.</sareaen><snaen>MRT Danfeng Sta. (Exit 1)</snaen><aren>Zhongzheng Rd./Min’an Rd</aren><bemp>22</bemp><act>1</act></row><row><sno>1073</sno><sna>永福橋</sna><tot>18</tot><sbi>4</sbi><sarea>永和區</sarea><mday>20230627213935</mday><lat>25.010032</lat><lng>121.524184</lng><ar>豫溪街217巷27號對面人行道</ar><sareaen>Yonghe Dist.</sareaen><snaen>Yongfu Bridge</snaen><aren>No.27, Ln. 217, Yuxi St. (opposite)</aren><bemp>12</bemp><act>1</act></row><row><sno>1074</sno><sna>中港國小</sna><tot>20</tot><sbi>8</sbi><sarea>新莊區</sarea><mday>20230627213919</mday><lat>25.045673</lat><lng>121.44780</lng><ar>中和街70號對面</ar><sareaen>Xinzhuang Dist.</sareaen><snaen>Zhonggang Elementary School</snaen><aren>No.70, Zhonghe St. (opposite)</aren><bemp>10</bemp><act>1</act></row><row><sno>1075</sno><sna>六合公園</sna><tot>36</tot><sbi>10</sbi><sarea>三重區</sarea><mday>20230627213924</mday><lat>25.069499</lat><lng>121.487588</lng><ar>自強路二段74巷27號對面</ar><sareaen>Sanchong Dist.</sareaen><snaen>Liuhe Park</snaen><aren>No.27, Ln. 74, Sec. 2, Ziqiang Rd. (opposite)</aren><bemp>25</bemp><act>1</act></row><row><sno>1076</sno><sna>正義公園</sna><tot>44</tot><sbi>6</sbi><sarea>三重區</sarea><mday>20230627213926</mday><lat>25.068551</lat><lng>121.497818</lng><ar>文化北路101號至119號對面</ar><sareaen>Sanchong Dist.</sareaen><snaen>Zhengyi Park</snaen><aren>No.101 to No. 119, Wenhua N. Rd. (opposite)</aren><bemp>38</bemp><act>1</act></row><row><sno>1077</sno><sna>捷運徐匯中學站(1號出口)</sna><tot>32</tot><sbi>0</sbi><sarea>蘆洲區</sarea><mday>20230627213930</mday><lat>25.080468</lat><lng>121.479852</lng><ar>中山一路3號(捷運徐匯中學站1號出口旁)</ar><sareaen>Luzhou Dist.</sareaen><snaen>MRT St.Ignatius High School Sta. (Exit 1)</snaen><aren>No.3, Zhongshan 1st Rd.</aren><bemp>32</bemp><act>1</act></row><row><sno>1078</sno><sna>黃城公園</sna><tot>18</tot><sbi>10</sbi><sarea>新莊區</sarea><mday>20230627213944</mday><lat>25.052382</lat><lng>121.448239</lng><ar>中信街74號旁</ar><sareaen>Xinzhuang Dist.</sareaen><snaen>Huangcheng Park</snaen><aren>No.74, Zhongxin St.</aren><bemp>7</bemp><act>1</act></row><row><sno>1079</sno><sna>捷運菜寮站(3號出口)</sna><tot>12</tot><sbi>5</sbi><sarea>三重區</sarea><mday>20230627213927</mday><lat>25.060471</lat><lng>121.492198</lng><ar>重新路三段67號旁</ar><sareaen>Sanchong Dist.</sareaen><snaen>MRT Cailiao Sta. (Exit 3)</snaen><aren>No.67, Sec. 3, Chongxin Rd.</aren><bemp>5</bemp><act>1</act></row><row><sno>1080</sno><sna>捷運三和國中站(1號出口)</sna><tot>50</tot><sbi>10</sbi><sarea>三重區</sarea><mday>20230627213919</mday><lat>25.075881</lat><lng>121.487795</lng><ar>三和路四段95號至97號對面(捷運三和國中站1號出口)</ar><sareaen>Sanchong Dist.</sareaen><snaen>MRT Sanhe Junior High School Sta.</snaen><aren>No.95 to N0. 97, Sec. 4, Sanhe Rd. (opposite)</aren><bemp>28</bemp><act>1</act></row><row><sno>1081</sno><sna>中和國民運動中心</sna><tot>10</tot><sbi>1</sbi><sarea>中和區</sarea><mday>20230627213839</mday><lat>24.993477</lat><lng>121.487692</lng><ar>和城路一段/中正二橋</ar><sareaen>Zhonghe Dist.</sareaen><snaen>Zhonghe Civil Sports Center</snaen><aren>Sec. 1, Hecheng Rd./ Zhongzheng Second Bridge</aren><bemp>8</bemp><act>1</act></row><row><sno>1082</sno><sna>四維公園</sna><tot>40</tot><sbi>12</sbi><sarea>新莊區</sarea><mday>20230627213831</mday><lat>25.021308</lat><lng>121.422185</lng><ar>四維路181號對面(四維活動中心出口前)</ar><sareaen>Xinzhuang Dist.</sareaen><snaen>Siwei Park</snaen><aren>No.181, Siwei Rd. (opposite)</aren><bemp>22</bemp><act>1</act></row><row><sno>1083</sno><sna>蘆洲國民運動中心</sna><tot>22</tot><sbi>7</sbi><sarea>蘆洲區</sarea><mday>20230627213927</mday><lat>25.091945</lat><lng>121.461613</lng><ar>長興路237巷/長興路</ar><sareaen>Luzhou Dist.</sareaen><snaen>Luzhou Civil Sports Center</snaen><aren>Ln. 237, Changxing Rd./Changxing Rd.</aren><bemp>14</bemp><act>1</act></row><row><sno>1084</sno><sna>和平公園</sna><tot>20</tot><sbi>5</sbi><sarea>三重區</sarea><mday>20230627213939</mday><lat>25.070884</lat><lng>121.485712</lng><ar>忠孝路二段/忠孝路二段32巷</ar><sareaen>Sanchong Dist.</sareaen><snaen>Helping Park</snaen><aren>Zhongxiao Rd./Ln. 32, Sec. 2, Zhongxiao Rd.</aren><bemp>15</bemp><act>1</act></row><row><sno>1085</sno><sna>三重綜合體育館</sna><tot>16</tot><sbi>2</sbi><sarea>三重區</sarea><mday>20230627213937</mday><lat>25.061446</lat><lng>121.491926</lng><ar>新北大道一段1號前人行道</ar><sareaen>Sanchong Dist.</sareaen><snaen>Sanchong Sports Center</snaen><aren>No.1, Sec. 1, New Taipei Blvd.</aren><bemp>13</bemp><act>1</act></row><row><sno>1086</sno><sna>信義公園</sna><tot>16</tot><sbi>1</sbi><sarea>三重區</sarea><mday>20230627213830</mday><lat>25.064804</lat><lng>121.498749</lng><ar>信義西街18號對面人行道(鄰近三和夜市)</ar><sareaen>Sanchong Dist.</sareaen><snaen>Xinyi Park</snaen><aren>No.18, Xinyi W. St. (opposite)</aren><bemp>14</bemp><act>1</act></row><row><sno>1087</sno><sna>捷運小碧潭站(1號出口)</sna><tot>16</tot><sbi>8</sbi><sarea>新店區</sarea><mday>20230627213920</mday><lat>24.97152</lat><lng>121.53029</lng><ar>捷運小碧潭站1號出口旁西側人行道(環河路側)(鄰近小碧潭景觀廣場)</ar><sareaen>Xindian Dist.</sareaen><snaen>MRT Xiaobitan Sta. (Exit.1)</snaen><aren>MRT Xiaobitan Sta. (Exit.1) (Huanhe Rd.)</aren><bemp>8</bemp><act>1</act></row><row><sno>1088</sno><sna>秀得里(成功路二段)</sna><tot>8</tot><sbi>5</sbi><sarea>永和區</sarea><mday>20230627213916</mday><lat>25.000705</lat><lng>121.526729</lng><ar>成功路二段28號至34號</ar><sareaen>Yonghe Dist.</sareaen><snaen>Xiu de Village (Chenggong Rd. Sec. 2)</snaen><aren>No.28 to No.34, Sec. 2, Chenggong Rd.</aren><bemp>3</bemp><act>1</act></row><row><sno>1090</sno><sna>永康公園</sna><tot>20</tot><sbi>2</sbi><sarea>蘆洲區</sarea><mday>20230627213923</mday><lat>25.084920</lat><lng>121.458210</lng><ar>長安街297號(對面)</ar><sareaen>Luzhou Dist.</sareaen><snaen>Yongkang Park</snaen><aren>No.297, Chang’an St., Luzhou Dist.(opposite)</aren><bemp>18</bemp><act>1</act></row><row><sno>1091</sno><sna>頭前運動公園</sna><tot>50</tot><sbi>15</sbi><sarea>新莊區</sarea><mday>20230627213933</mday><lat>25.052180</lat><lng>121.462124</lng><ar>頭成街165號對面人行道</ar><sareaen>Xinzhuang Dist.</sareaen><snaen>Touqian Sports Park</snaen><aren>No.165, Toucheng St. (opposite)</aren><bemp>34</bemp><act>1</act></row><row><sno>1092</sno><sna>頭前國中</sna><tot>42</tot><sbi>25</sbi><sarea>新莊區</sarea><mday>20230627213945</mday><lat>25.054464</lat><lng>121.459318</lng><ar>中原路3至9號對面人行道</ar><sareaen>Xinzhuang Dist.</sareaen><snaen>Touqian Junior High School</snaen><aren>No.3 to No.9 , Zhongyuan Rd. (opposite)</aren><bemp>16</bemp><act>1</act></row><row><sno>1093</sno><sna>建國民權路口</sna><tot>12</tot><sbi>2</sbi><sarea>新店區</sarea><mday>20230627213920</mday><lat>24.983184</lat><lng>121.537462</lng><ar>建國路259號前人行道</ar><sareaen>Xindian Dist.</sareaen><snaen>Jianguo Minquan Intersection</snaen><aren>No.259, Jianguo Rd.</aren><bemp>5</bemp><act>1</act></row><row><sno>1094</sno><sna>聯邦公園</sna><tot>28</tot><sbi>8</sbi><sarea>三重區</sarea><mday>20230627213940</mday><lat>25.064447</lat><lng>121.483710</lng><ar>三民街/中華路</ar><sareaen>Sanchong Dist.</sareaen><snaen>Lian Bang Park</snaen><aren>Sanmin St./Zhonghua Rd.</aren><bemp>18</bemp><act>1</act></row><row><sno>1095</sno><sna>捷運蘆洲站</sna><tot>52</tot><sbi>0</sbi><sarea>蘆洲區</sarea><mday>20230627213923</mday><lat>25.091637</lat><lng>121.464031</lng><ar>三民路/中正路口</ar><sareaen>Luzhou Dist.</sareaen><snaen>MRT Luzhou Sta.</snaen><aren>Sanmin Rd./Zhongzheng Rd.</aren><bemp>52</bemp><act>1</act></row><row><sno>1096</sno><sna>集成成功路口</sna><tot>16</tot><sbi>1</sbi><sarea>三重區</sarea><mday>20230627213925</mday><lat>25.051542</lat><lng>121.488208</lng><ar>集成路2號至8號前人行道</ar><sareaen>Sanchong Dist.</sareaen><snaen>Ji Cheng Cheng Gong Intersection</snaen><aren>No.2 to No.8, Jicheng Rd.</aren><bemp>15</bemp><act>1</act></row><row><sno>1097</sno><sna>板橋國民運動中心</sna><tot>16</tot><sbi>7</sbi><sarea>板橋區</sarea><mday>20230627213921</mday><lat>25.022235</lat><lng>121.458152</lng><ar>英士路/智樂路</ar><sareaen>Banqiao Dist.</sareaen><snaen>Banqiao Civil Sports Center</snaen><aren>Yingshi Rd./Jhihle Rd.</aren><bemp>9</bemp><act>1</act></row><row><sno>1098</sno><sna>永安公園</sna><tot>20</tot><sbi>4</sbi><sarea>板橋區</sarea><mday>20230627213920</mday><lat>25.024478</lat><lng>121.477572</lng><ar>雙十路一段25號前人行道</ar><sareaen>Banqiao Dist.</sareaen><snaen>Yongan Park</snaen><aren>No.25, Sec. 1, Shuangshi Rd.</aren><bemp>6</bemp><act>1</act></row><row><sno>1099</sno><sna>捷運江子翠站(3號出口)</sna><tot>12</tot><sbi>0</sbi><sarea>板橋區</sarea><mday>20230627213929</mday><lat>25.029729</lat><lng>121.472359</lng><ar>文化路二段/雙十路二段(鄰近石雕公園/板橋農村公園)</ar><sareaen>Banqiao Dist.</sareaen><snaen>MRT Jiangzicui Sta.(Exit 3)</snaen><aren>Sec. 2, Wenhua Rd./Sec. 2, Shuangshi Rd.</aren><bemp>12</bemp><act>1</act></row><row><sno>1100</sno><sna>音樂公園</sna><tot>18</tot><sbi>7</sbi><sarea>板橋區</sarea><mday>20230627213918</mday><lat>25.028631</lat><lng>121.480460</lng><ar>大同街97號對面公園人行道</ar><sareaen>Banqiao Dist.</sareaen><snaen>Yinyue Park</snaen><aren>No.97, Datong St.</aren><bemp>9</bemp><act>1</act></row><row><sno>1101</sno><sna>捷運七張站(1號出口)</sna><tot>14</tot><sbi>1</sbi><sarea>新店區</sarea><mday>20230627213944</mday><lat>24.974996</lat><lng>121.542767</lng><ar>北新路二段/北新路二段121巷</ar><sareaen>Xindian Dist.</sareaen><snaen>MRT Qizhang Sta. (Exit 1)</snaen><aren>Sec. 2, Beixin Rd./Ln. 121, Sec. 2, Beixin Rd.</aren><bemp>13</bemp><act>1</act></row><row><sno>1102</sno><sna>北新國小</sna><tot>22</tot><sbi>0</sbi><sarea>新店區</sarea><mday>20230627213944</mday><lat>24.974233</lat><lng>121.544428</lng><ar>寶橋路8號前人行道</ar><sareaen>Xindian Dist.</sareaen><snaen>BeiXin Elementary School</snaen><aren>No.8, Baoqiao Rd.</aren><bemp>22</bemp><act>1</act></row><row><sno>1103</sno><sna>捷運新埔站(2號出口)</sna><tot>22</tot><sbi>0</sbi><sarea>板橋區</sarea><mday>20230627213934</mday><lat>25.022095</lat><lng>121.467598</lng><ar>文化路一段318號旁廣場</ar><sareaen>Banqiao Dist.</sareaen><snaen>MRT Xinpu Sta.(Exit.2)</snaen><aren>No.318, Sec. 1, Wenhua Rd.</aren><bemp>22</bemp><act>1</act></row><row><sno>1104</sno><sna>聯合醫院板橋院區</sna><tot>20</tot><sbi>7</sbi><sarea>板橋區</sarea><mday>20230627213925</mday><lat>25.023832</lat><lng>121.457773</lng><ar>龍泉街131號旁人行道(立體停車場前)</ar><sareaen>Banqiao Dist.</sareaen><snaen>New Taipei City Hospital Banqiao Branch</snaen><aren>No.131, Longquan St.</aren><bemp>13</bemp><act>1</act></row></data>